[{"Name":"Shilparamam","Address":"Hi Tech City Main Road, Madhapur Rd, HITEC City, Hyderabad, Telangana 500081","Latitude":17.4500369,"Longitude":78.3566389},{"Name":"Khajaguda Lake Point","Address":"C9FC+HH9, ESCI Rd, Sai Aishwarya Layout, Madhura Nagar Colony, Gachibowli, Hyderabad, Telangana 500032","Latitude":17.4239186,"Longitude":78.3440529},{"Name":"Statue of emptyness","Address":"C9CC+7XW, ESCI Rd, Sai Aishwarya Layout, Madhura Nagar Colony, Gachibowli, Hyderabad, Telangana 500032","Latitude":17.4239186,"Longitude":78.3440529},{"Name":"Durgam Cheruvu Secret Lake Park","Address":"Plot no, 910B, Rd Number 46, Masthan Nagar, CBI Colony, Jubilee Hills, Hyderabad, Telangana 500033","Latitude":17.4239186,"Longitude":78.3440529},{"Name":"The Turtle Building","Address":"F945+GW9, Kondapur Main Road, Forest Dept Colony, Kondapur, Telangana 500084","Latitude":17.456277,"Longitude":78.3238228},{"Name":"Gandipet Lake","Address":"98H8+M5, Gandipet, Hyderabad, Telangana 500075","Latitude":17.3791346,"Longitude":78.2793927},{"Name":"Golconda Fort","Address":"Khair Complex, Ibrahim Bagh, Hyderabad, Telangana 500008","Latitude":17.383309,"Longitude":78.3650039},{"Name":"Khajaguda Cheruvu","Address":"C9FC+6J8, ESCI Rd, Jayabheri Pine Valley, Gachibowli, Hyderabad, Telangana 500032","Latitude":17.4231963,"Longitude":78.3363973},{"Name":"Gandipet Park","Address":"98J8+PGM, Gandipet, Telangana 500075","Latitude":17.3818429,"Longitude":78.28026},{"Name":"Lucky","Address":"C82M+25X, Pavani Blvd Rd, Kokapet, Telangana 500075","Latitude":17.381825,"Longitude":78.218457},{"Name":"Oakleaf Restaurant & Bar - Oakwood Residence Kapil Hyderabad","Address":"Third Floor, Oakwood Residence Kapil Hyderabad Survey No 115/1, Financial District, Nanakramguda, Gachibowli, Hyderabad, Telangana 500032","Latitude":17.381825,"Longitude":78.21845},{"Name":"Barbeque Nation","Address":"Survey No: 135/136, Ground Floor Anvi's Eco Grand, Nanakramguda Rd, beside Wipro Lake, Financial District, Gachibowli, Telangana 500036","Latitude":17.381825,"Longitude":78.218457},{"Name":"Deli 9 Bistro","Address":"Ground Floor Anvi Eco Grand, Nanakramguda Rd, beside Wipro Circle, Financial District, Gachibowli, Hyderabad, Telangana 500036","Latitude":17.381825,"Longitude":78.218457},{"Name":"Mrs Mage - Hyatt Hyderabad Gachibowli","Address":"Hyatt Hyderabad, Road No. 2, Financial District, Gachibowli, Hyderabad, Telangana 500019","Latitude":17.381825,"Longitude":78.218457},{"Name":"The English Cafe Restro Bar","Address":"Financial District, Nanakaramguda, Telangana 500032","Latitude":17.381825,"Longitude":78.218457},{"Name":"The Glass Onion","Address":"Boulder Hills Madhava Reddy Colony Opp ISB, Next to Infosys, Gachibowli, Telangana 500032","Latitude":17.381825,"Longitude":78.218457},{"Name":"Jonathan's Kitchen","Address":"Fairfield by Marriott, Madhava Reddy Colony, Gachibowli, Hyderabad, Telangana 500032","Latitude":17.381825,"Longitude":78.218457},{"Name":"JDM PUNJABI DHABA","Address":"gate no 5, oppsite amazon, 2-58/4/3/A, Nanakramguda, Eat St, Financial District, Gachibowli, Hyderabad, Telangana 500008","Latitude":17.381825,"Longitude":78.218457},{"Name":"Fine Food Court","Address":"C8CX+44M, Unnamed Road Hyderabad, Financial District, Nanakram Guda, Hyderabad, Telangana 500032","Latitude":17.381825,"Longitude":78.218457},{"Name":"Cafe Coffee Day - Infosys Outlet 2","Address":"Counter 2, Infosys Campus,Manikonda, Lingampally, Hyderabad, Telangana 500019","Latitude":17.4332805,"Longitude":78.3168924},{"Name":"V cafe restaurant and arzo shawarmas and grill","Address":"plot no 9, Madhava Reddy Colony, Gachibowli, Hyderabad, Telangana 500032","Latitude":17.4332805,"Longitude":78.3168924},{"Name":"Microsoft 2","Address":"Microsoft India (R & D) Pvt Ltd, Microsoft Campus, Gachibowli, Hyderabad, Telangana 500032","Latitude":17.4332805,"Longitude":78.3168924},{"Name":"Heart Cup","Address":"Ground Floor, Open Land, 56/122 And 123, Sandhya Hotels Private Limited Rep By Sreedhar Rao, Gachibowli, Telangana 500032","Latitude":17.4332805,"Longitude":78.3168924},{"Name":"Hatti Kaapi","Address":"Infosys Ltd., OFC PHASE 1 Survey No 210, Manikonda Village Lingampally, Hyderabad, Telangana 500032","Latitude":17.4332805,"Longitude":78.3168924},{"Name":"Driven Cafe","Address":"Kapil Towers, Opposite to ICICI Bank Nanakram Guda, ISB Rd, Financial District, Gachibowli, Hyderabad, Telangana 500008","Latitude":17.4332805,"Longitude":78.3168924},{"Name":"Cafe Eclat","Address":"Gachibowli Flyover, Diamond Hills, Rajiv gandhi Nagar, Gachibowli, Hyderabad, Telangana 500032","Latitude":17.4332805,"Longitude":78.3168924},{"Name":"Nothing Before Coffee","Address":"Unit No:3, Ground floor of Kapil Kavuri Hub Sy No. 144, Nanakramguda, Serilingampally, Hyderabad, Telangana 500032","Latitude":17.4332805,"Longitude":78.3168924},{"Name":"Cafe 115 , Oakwood Residence Kapil Hyderabad","Address":"Lobby Level, Oakwood Residence Kapil Hyderabad, Survey no 115/1, Kapil Towers Financial District, Nanakram Guda, Gachibowli, Telangana 500032","Latitude":17.4332805,"Longitude":78.3168924},{"Name":"Frespresso Cafe","Address":"Ground Floor, Kapil Towers, ISB Rd, Financial District, Gachibowli, Hyderabad, Telangana 500032","Latitude":17.4332805,"Longitude":78.3168924}]